
******2014/8/27 11:25:49******
$GPTXT,01,01,02,u-blox ag - www.u-blox.com*50
$GPTXT,01,01,02,HW  UBX-G60xx  00040007 FF7FFFFFp*53
$GPTXT,01,01,02,ROM CORE 7.03 (45969) Mar 17 2011 16:18:34*59
$GPTXT,01,01,02,ANTSUPERV=AC SD PDoS SR*20
$GPTXT,01,01,02,ANTSTATUS=OK*3B
$GPRMC,032524.00,A,2303.00591,N,11324.42138,E,0.689,,270814,,,D*7E
$GPVTG,,T,,M,0.689,N,1.276,K,D*23
$GPGGA,032524.00,2303.00591,N,11324.42138,E,2,12,0.78,13.2,M,-5.1,M,,0000*7E
$GPGSA,A,3,01,11,08,30,07,32,13,42,28,04,27,17,1.18,0.78,0.89*01
$GPGSV,5,1,17,01,69,151,35,04,34,198,31,07,75,258,26,08,79,286,16*74
$GPGSV,5,2,17,11,77,052,28,13,15,203,20,16,07,101,,17,15,254,27*74
$GPGSV,5,3,17,19,29,036,40,20,12,162,,23,04,181,08,27,06,052,15*7A
$GPGSV,5,4,17,28,21,314,19,30,49,311,17,32,10,122,20,42,50,128,39*73
$GPGSV,5,5,17,50,45,122,33*4A
$GPGLL,2303.00591,N,11324.42138,E,032524.00,A,D*68
$GPRMC,032525.00,A,2303.00594,N,11324.42136,E,0.098,,270814,,,D*72
$GPVTG,,T,,M,0.098,N,0.181,K,D*2F
$GPGGA,032525.00,2303.00594,N,11324.42136,E,2,12,0.78,13.2,M,-5.1,M,,0000*74
$GPGSA,A,3,01,11,08,30,07,16,32,13,42,28,04,27,1.18,0.78,0.89*00
$GPGSV,5,1,17,01,69,151,32,04,34,198,29,07,75,258,25,08,79,286,14*7B
$GPGSV,5,2,17,11,77,052,27,13,15,203,19,16,07,101,21,17,15,254,26*73
$GPGSV,5,3,17,19,29,036,37,20,12,162,,23,04,181,08,27,06,052,14*7B
$GPGSV,5,4,17,28,21,314,18,30,49,311,16,32,10,122,19,42,50,128,36*76
$GPGSV,5,5,17,50,45,122,31*48
$GPGLL,2303.00594,N,11324.42136,E,032525.00,A,D*62
$GPRMC,032526.00,A,2303.00599,N,11324.42131,E,0.063,,270814,,,D*7F
$GPVTG,,T,,M,0.063,N,0.116,K,D*25
$GPGGA,032526.00,2303.00599,N,11324.42131,E,2,12,0.75,13.4,M,-5.1,M,,0000*76
$GPGSA,A,3,01,11,08,30,07,16,32,13,42,28,04,27,1.15,0.75,0.88*01
$GPGSV,5,1,17,01,69,151,33,04,34,198,29,07,75,258,26,08,79,286,13*7E
$GPGSV,5,2,17,11,77,052,28,13,15,203,20,16,07,101,18,17,15,254,25*7F
$GPGSV,5,3,17,19,29,036,38,20,12,162,,23,04,181,09,27,06,052,15*74
$GPGSV,5,4,17,28,21,314,18,30,49,311,16,32,10,122,19,42,50,128,37*77
$GPGSV,5,5,17,50,45,122,32*4B
$GPGLL,2303.00599,N,11324.42131,E,032526.00,A,D*6B
$GPRMC,032527.00,A,2303.00605,N,11324.42121,E,0.294,,270814,,,D*73
$GPVTG,,T,,M,0.294,N,0.545,K,D*2D
$GPGGA,032527.00,2303.00605,N,11324.42121,E,2,12,0.75,13.5,M,-5.1,M,,0000*71
$GPGSA,A,3,01,11,08,30,07,32,13,42,28,04,27,17,1.15,0.75,0.88*00
$GPGSV,5,1,17,01,69,151,34,04,34,198,29,07,75,258,25,08,79,286,15*7C
$GPGSV,5,2,17,11,77,052,28,13,15,203,19,16,07,101,12,17,15,254,25*7F
$GPGSV,5,3,17,19,29,036,38,20,12,162,,23,04,181,,27,06,052,15*7D
$GPGSV,5,4,17,28,21,314,19,30,49,311,16,32,10,122,20,42,50,128,37*7C
$GPGSV,5,5,17,50,45,122,32*4B
$GPGLL,2303.00605,N,11324.42121,E,032527.00,A,D*6D
$GPRMC,032528.00,A,2303.00606,N,11324.42113,E,0.248,,270814,,,D*7F
$GPVTG,,T,,M,0.248,N,0.458,K,D*21
$GPGGA,032528.00,2303.00606,N,11324.42113,E,2,12,1.04,13.3,M,-5.1,M,,0000*7D
$GPGSA,A,3,01,11,08,07,16,32,13,42,28,04,27,17,1.65,1.04,1.28*0F
$GPGSV,5,1,17,01,69,151,34,04,34,198,28,07,75,258,25,08,79,286,16*7E
$GPGSV,5,2,17,11,77,052,28,13,15,203,18,16,07,101,10,17,15,254,23*7A
$GPGSV,5,3,17,19,29,036,38,20,12,162,,23,04,181,,27,06,052,14*7C
$GPGSV,5,4,17,28,21,314,18,30,49,311,,32,10,122,20,42,50,128,37*7A
$GPGSV,5,5,17,50,45,122,32*4B
$GPGLL,2303.00606,N,11324.42113,E,032528.00,A,D*60
$GPRMC,032529.00,A,2303.00605,N,11324.42116,E,0.159,,270814,,,D*7B
$GPVTG,,T,,M,0.159,N,0.295,K,D*25
$GPGGA,032529.00,2303.00605,N,11324.42116,E,2,12,1.04,13.2,M,-5.1,M,,0000*7B
$GPGSA,A,3,01,11,08,07,16,32,13,42,28,04,27,17,1.65,1.04,1.28*0F
$GPGSV,5,1,17,01,69,151,33,04,34,198,29,07,75,258,24,08,79,286,17*78
$GPGSV,5,2,17,11,77,052,27,13,15,203,17,16,07,101,12,17,15,254,23*78
$GPGSV,5,3,17,19,29,036,38,20,12,162,,23,04,181,,27,06,052,14*7C
$GPGSV,5,4,17,28,21,314,18,30,49,311,,32,10,122,20,42,50,128,37*7A
$GPGSV,5,5,17,50,45,122,32*4B
$GPGLL,2303.00605,N,11324.42116,E,032529.00,A,D*67
$GPRMC,032530.00,A,2303.00601,N,11324.42117,E,0.125,,270814,,,D*7D
$GPVTG,,T,,M,0.125,N,0.231,K,D*20
$GPGGA,032530.00,2303.00601,N,11324.42117,E,2,12,1.13,12.8,M,-5.1,M,,0000*7B
$GPGSA,A,3,01,11,08,30,07,16,32,42,28,04,27,17,1.86,1.13,1.48*03
$GPGSV,5,1,17,01,69,151,36,04,34,198,29,07,75,258,30,08,79,286,19*76
$GPGSV,5,2,17,11,77,052,32,13,15,203,,16,07,101,15,17,15,254,22*7C
$GPGSV,5,3,17,19,29,036,41,20,12,162,,23,04,181,,27,06,052,16*70
$GPGSV,5,4,17,28,21,314,17,30,49,311,18,32,10,122,21,42,50,128,39*73
$GPGSV,5,5,17,50,45,122,35*4C
$GPGLL,2303.00601,N,11324.42117,E,032530.00,A,D*6A
$GPRMC,032531.00,A,2303.00605,N,11324.42108,E,0.069,,270814,,,D*7F
$GPVTG,,T,,M,0.069,N,0.128,K,D*22
$GPGGA,032531.00,2303.00605,N,11324.42108,E,2,12,1.22,12.8,M,-5.1,M,,0000*72
$GPGSA,A,3,01,11,08,30,07,16,32,13,42,04,27,17,1.92,1.22,1.49*0D
$GPGSV,5,1,17,01,69,151,35,04,34,198,29,07,75,258,28,08,79,286,20*76
$GPGSV,5,2,17,11,77,052,31,13,15,203,19,16,07,101,19,17,15,254,22*7B
$GPGSV,5,3,17,19,29,036,40,20,12,162,,23,04,181,,27,06,052,18*7F
$GPGSV,5,4,17,28,21,314,,30,49,311,23,32,10,122,22,42,50,128,39*7E
$GPGSV,5,5,17,50,45,122,34*4D
$GPGLL,2303.00605,N,11324.42108,E,032531.00,A,D*61
$GPRMC,032532.00,A,2303.00603,N,11324.42110,E,0.285,,270814,,,D*73
$GPVTG,,T,,M,0.285,N,0.528,K,D*26
$GPGGA,032532.00,2303.00603,N,11324.42110,E,2,12,1.14,12.6,M,-5.1,M,,0000*75
$GPGSA,A,3,01,11,08,30,07,16,32,42,28,04,27,17,1.87,1.14,1.48*05
$GPGSV,5,1,17,01,69,151,35,04,34,198,29,07,75,258,27,08,79,286,20*79
$GPGSV,5,2,17,11,77,052,30,13,15,203,,16,07,101,20,17,15,254,20*7A
$GPGSV,5,3,17,19,29,036,40,20,12,162,,23,04,181,10,27,06,052,18*7E
$GPGSV,5,4,17,28,21,314,19,30,49,311,24,32,10,122,22,42,50,128,39*71
$GPGSV,5,5,17,50,45,122,34*4D
$GPGLL,2303.00603,N,11324.42110,E,032532.00,A,D*6D
$GPRMC,032533.00,A,2303.00606,N,11324.42126,E,0.395,,270814,,,D*72
$GPVTG,,T,,M,0.395,N,0.732,K,D*2F
$GPGGA,032533.00,2303.00606,N,11324.42126,E,2,12,1.04,12.8,M,-5.1,M,,0000*7B
$GPGSA,A,3,01,11,08,30,07,16,32,42,28,04,27,17,1.51,1.04,1.09*0A
$GPGSV,5,1,17,01,69,151,35,04,34,198,28,07,75,258,27,08,79,286,20*78
$GPGSV,5,2,17,11,77,052,30,13,15,203,,16,07,101,20,17,15,254,20*7A
$GPGSV,5,3,17,19,29,036,40,20,12,162,,23,04,181,10,27,06,052,19*7F
$GPGSV,5,4,17,28,21,314,19,30,49,311,23,32,10,122,23,42,50,128,39*77
$GPGSV,5,5,17,50,45,122,34*4D
$GPGLL,2303.00606,N,11324.42126,E,032533.00,A,D*6C
$GPRMC,032534.00,A,2303.00606,N,11324.42139,E,0.400,,270814,,,D*70
$GPVTG,,T,,M,0.400,N,0.741,K,D*20
$GPGGA,032534.00,2303.00606,N,11324.42139,E,2,12,0.94,13.0,M,-5.1,M,,0000*73
$GPGSA,A,3,01,11,08,30,07,16,32,42,28,04,27,17,1.36,0.94,0.98*0A
$GPGSV,5,1,17,01,69,151,34,04,34,198,26,07,75,258,26,08,79,286,21*77
$GPGSV,5,2,17,11,77,052,30,13,15,203,,16,07,101,21,17,15,254,20*7B
$GPGSV,5,3,17,19,29,036,39,20,12,162,,23,04,181,12,27,06,052,19*73
$GPGSV,5,4,17,28,21,314,18,30,49,311,24,32,10,122,22,42,50,128,39*70
$GPGSV,5,5,17,50,45,122,34*4D
$GPGLL,2303.00606,N,11324.42139,E,032534.00,A,D*65
$GPRMC,032535.00,A,2303.00601,N,11324.42124,E,0.413,,270814,,,D*78
$GPVTG,,T,,M,0.413,N,0.766,K,D*27
$GPGGA,032535.00,2303.00601,N,11324.42124,E,2,12,0.94,12.7,M,-5.1,M,,0000*7F
$GPGSA,A,3,01,11,08,30,07,16,32,42,28,04,27,17,1.36,0.94,0.98*0A
$GPGSV,5,1,17,01,69,151,34,04,34,198,25,07,75,258,25,08,79,286,21*77
$GPGSV,5,2,17,11,77,052,30,13,15,203,,16,07,101,22,17,15,254,19*72
$GPGSV,5,3,17,19,29,036,40,20,12,162,,23,04,181,13,27,06,052,19*7C
$GPGSV,5,4,17,28,21,314,21,30,49,311,23,32,10,122,22,42,50,128,40*73
$GPGSV,5,5,17,50,45,122,34*4D
$GPGLL,2303.00601,N,11324.42124,E,032535.00,A,D*6F
$GPRMC,032536.00,A,2303.00596,N,11324.42121,E,0.152,,270814,,,D*73
$GPVTG,,T,,M,0.152,N,0.281,K,D*2B
$GPGGA,032536.00,2303.00596,N,11324.42121,E,2,12,1.04,12.6,M,-5.1,M,,0000*7D
$GPGSA,A,3,01,11,08,30,07,16,32,42,28,04,27,17,1.51,1.04,1.09*0A
$GPGSV,5,1,17,01,69,151,34,04,34,198,24,07,75,258,26,08,79,286,22*76
$GPGSV,5,2,17,11,77,052,30,13,15,203,,16,07,101,21,17,15,254,18*70
$GPGSV,5,3,17,19,29,036,40,20,12,162,,23,04,181,13,27,06,052,19*7C
$GPGSV,5,4,17,28,21,314,18,30,49,311,23,32,10,122,21,42,50,128,40*7A
$GPGSV,5,5,17,50,45,122,34*4D
$GPGLL,2303.00596,N,11324.42121,E,032536.00,A,D*64
$GPRMC,032537.00,A,2303.00592,N,11324.42123,E,0.093,,270814,,,D*78
$GPVTG,,T,,M,0.093,N,0.173,K,D*29
$GPGGA,032537.00,2303.00592,N,11324.42123,E,2,12,1.14,12.4,M,-5.1,M,,0000*79
$GPGSA,A,3,01,11,08,30,07,16,32,13,42,04,27,17,1.87,1.14,1.48*0D
$GPGSV,5,1,17,01,69,151,34,04,34,198,25,07,75,258,26,08,79,286,23*76
$GPGSV,5,2,17,11,77,052,29,13,15,203,18,16,07,101,22,17,15,254,18*72
$GPGSV,5,3,17,19,29,036,39,20,12,162,,23,04,181,13,27,06,052,17*7C
$GPGSV,5,4,17,28,21,314,,30,49,311,23,32,10,122,22,42,50,128,39*7E
$GPGSV,5,5,17,50,45,122,34*4D
$GPGLL,2303.00592,N,11324.42123,E,032537.00,A,D*63
$GPRMC,032538.00,A,2303.00587,N,11324.42113,E,0.169,,270814,,,D*74
$GPVTG,,T,,M,0.169,N,0.313,K,D*29
$GPGGA,032538.00,2303.00587,N,11324.42113,E,2,12,1.04,12.0,M,-5.1,M,,0000*74
$GPGSA,A,3,01,11,08,30,07,16,32,42,04,27,17,19,1.51,1.04,1.09*08
$GPGSV,5,1,17,01,69,151,34,04,34,198,24,07,75,258,26,08,79,286,24*70
$GPGSV,5,2,17,11,77,052,29,13,15,203,,16,07,101,23,17,15,254,17*75
$GPGSV,5,3,17,19,29,036,40,20,12,162,,23,04,181,13,27,06,052,17*72
$GPGSV,5,4,17,28,21,314,,30,49,311,23,32,10,122,22,42,50,128,40*70
$GPGSV,5,5,17,50,45,122,34*4D
$GPGLL,2303.00587,N,11324.42113,E,032538.00,A,D*6B
$GPRMC,032539.00,A,2303.00587,N,11324.42101,E,0.266,,270814,,,D*7A
$GPVTG,,T,,M,0.266,N,0.493,K,D*2A
$GPGGA,032539.00,2303.00587,N,11324.42101,E,2,12,1.04,11.8,M,-5.1,M,,0000*7D
$GPGSA,A,3,01,11,08,30,07,16,32,42,04,27,17,19,1.51,1.04,1.09*08
$GPGSV,5,1,17,01,69,151,34,04,34,198,21,07,75,258,26,08,79,286,23*72
$GPGSV,5,2,17,11,77,052,30,13,15,203,,16,07,101,23,17,15,254,16*7C
$GPGSV,5,3,17,19,29,036,40,20,12,162,,23,04,181,11,27,06,052,17*70
$GPGSV,5,4,17,28,21,314,,30,49,311,22,32,10,122,23,42,50,128,40*70
$GPGSV,5,5,17,50,45,122,33*4A
$GPGLL,2303.00587,N,11324.42101,E,032539.00,A,D*69
$GPRMC,032540.00,A,2303.00589,N,11324.42090,E,0.564,,270814,,,D*76
$GPVTG,,T,,M,0.564,N,1.044,K,D*20
$GPGGA,032540.00,2303.00589,N,11324.42090,E,2,12,1.04,11.6,M,-5.1,M,,0000*7A
$GPGSA,A,3,01,11,08,30,07,16,32,42,04,27,17,19,1.51,1.04,1.09*08
$GPGSV,5,1,17,01,69,151,35,04,34,198,23,07,75,258,27,08,79,286,22*71
$GPGSV,5,2,17,11,77,052,30,13,15,203,,16,07,101,21,17,15,254,18*70
$GPGSV,5,3,17,19,29,036,40,20,12,162,,23,04,181,12,27,06,052,16*72
$GPGSV,5,4,17,28,21,314,20,30,49,311,22,32,10,122,23,42,50,128,40*72
$GPGSV,5,5,17,50,45,122,33*4A
$GPGLL,2303.00589,N,11324.42090,E,032540.00,A,D*60
$GPRMC,032541.00,A,2303.00596,N,11324.42097,E,0.277,,270814,,,D*7B
$GPVTG,,T,,M,0.277,N,0.514,K,D*24
$GPGGA,032541.00,2303.00596,N,11324.42097,E,2,12,1.04,11.9,M,-5.1,M,,0000*7D
$GPGSA,A,3,01,11,08,30,07,16,32,13,42,28,04,27,1.51,1.04,1.09*0E
$GPGSV,5,1,17,01,69,151,32,04,34,198,24,07,75,258,26,08,79,286,19*78
$GPGSV,5,2,17,11,77,052,29,13,15,203,18,16,07,101,20,17,15,254,18*70
$GPGSV,5,3,17,19,29,036,36,20,12,162,,23,04,181,12,27,06,052,15*70
$GPGSV,5,4,17,28,21,314,17,30,49,311,21,32,10,122,23,42,50,128,35*77
$GPGSV,5,5,17,50,45,122,29*41
$GPGLL,2303.00596,N,11324.42097,E,032541.00,A,D*68
$GPRMC,032542.00,A,2303.00607,N,11324.42112,E,0.181,,270814,,,D*75
$GPVTG,,T,,M,0.181,N,0.334,K,D*2A
$GPGGA,032542.00,2303.00607,N,11324.42112,E,2,12,1.04,12.4,M,-5.1,M,,0000*77
$GPGSA,A,3,01,11,08,30,07,16,32,13,42,04,27,17,1.51,1.04,1.09*02
$GPGSV,5,1,17,01,69,151,35,04,34,198,23,07,75,258,27,08,79,286,19*79
$GPGSV,5,2,17,11,77,052,29,13,15,203,17,16,07,101,20,17,15,254,17*70
$GPGSV,5,3,17,19,29,036,40,20,12,162,,23,04,181,12,27,06,052,16*72
$GPGSV,5,4,17,28,21,314,,30,49,311,19,32,10,122,24,42,50,128,39*71
$GPGSV,5,5,17,50,45,122,33*4A
$GPGLL,2303.00607,N,11324.42112,E,032542.00,A,D*6C
$GPRMC,032543.00,A,2303.00616,N,11324.42111,E,0.269,,270814,,,D*72
$GPVTG,,T,,M,0.269,N,0.499,K,D*2F
$GPGGA,032543.00,2303.00616,N,11324.42111,E,2,11,1.23,12.5,M,-5.1,M,,0000*72
$GPGSA,A,3,01,11,08,07,16,32,42,04,27,17,19,,1.66,1.23,1.11*03
$GPGSV,5,1,17,01,69,151,35,04,34,198,20,07,75,258,27,08,79,286,21*71
$GPGSV,5,2,17,11,77,052,29,13,15,203,,16,07,101,20,17,15,254,15*74
$GPGSV,5,3,17,19,29,036,40,20,12,162,,23,04,181,13,27,06,052,17*72
$GPGSV,5,4,17,28,21,314,,30,49,311,,32,10,122,24,42,50,128,39*79
$GPGSV,5,5,17,50,45,122,33*4A
$GPGLL,2303.00616,N,11324.42111,E,032543.00,A,D*6E
$GPRMC,032544.00,A,2303.00628,N,11324.42074,E,0.487,,270814,,,D*7C
$GPVTG,,T,,M,0.487,N,0.902,K,D*26
$GPGGA,032544.00,2303.00628,N,11324.42074,E,2,12,1.43,12.5,M,-5.1,M,,0000*7F
$GPGSA,A,3,01,11,08,30,07,16,32,42,04,27,17,19,2.09,1.43,1.52*0B
$GPGSV,5,1,17,01,69,151,35,04,34,198,23,07,75,258,27,08,79,286,22*71
$GPGSV,5,2,17,11,77,052,29,13,15,203,,16,07,101,20,17,15,254,13*72
$GPGSV,5,3,17,19,29,036,40,20,12,162,,23,04,181,13,27,06,052,17*72
$GPGSV,5,4,17,28,21,314,,30,49,311,19,32,10,122,25,42,50,128,39*70
$GPGSV,5,5,17,50,45,122,34*4D
$GPGLL,2303.00628,N,11324.42074,E,032544.00,A,D*66
$GPRMC,032545.00,A,2303.00639,N,11324.42079,E,0.258,,270814,,,D*74
$GPVTG,,T,,M,0.258,N,0.479,K,D*23
$GPGGA,032545.00,2303.00639,N,11324.42079,E,2,12,1.05,12.9,M,-5.1,M,,0000*7D
$GPGSA,A,3,01,11,08,30,07,16,32,42,28,04,27,17,1.43,1.05,0.98*01
$GPGSV,5,1,17,01,69,151,36,04,34,198,23,07,75,258,27,08,79,286,22*72
$GPGSV,5,2,17,11,77,052,29,13,15,203,07,16,07,101,19,17,15,254,13*7F
$GPGSV,5,3,17,19,29,036,40,20,12,162,,23,04,181,14,27,06,052,17*75
$GPGSV,5,4,17,28,21,314,18,30,49,311,17,32,10,122,25,42,50,128,39*77
$GPGSV,5,5,17,50,45,122,34*4D
$GPGLL,2303.00639,N,11324.42079,E,032545.00,A,D*6A
$GPRMC,032546.00,A,2303.00651,N,11324.42074,E,0.089,,270814,,,D*7A
$GPVTG,,T,,M,0.089,N,0.164,K,D*24
$GPGGA,032546.00,2303.00651,N,11324.42074,E,2,12,0.95,13.3,M,-5.1,M,,0000*7E
$GPGSA,A,3,01,11,08,07,16,32,42,28,04,27,17,19,1.34,0.95,0.95*0F
$GPGSV,5,1,17,01,69,151,35,04,34,198,20,07,75,258,27,08,79,286,22*72
$GPGSV,5,2,17,11,77,052,29,13,15,203,07,16,07,101,18,17,15,254,13*7E
$GPGSV,5,3,17,19,29,036,40,20,12,162,,23,04,181,13,27,06,052,17*72
$GPGSV,5,4,17,28,21,314,17,30,49,311,,32,10,122,24,42,50,128,39*7F
$GPGSV,5,5,17,50,45,122,33*4A
$GPGLL,2303.00651,N,11324.42074,E,032546.00,A,D*6A
$GPRMC,032547.00,A,2303.00657,N,11324.42049,E,0.229,,270814,,,D*7B
$GPVTG,,T,,M,0.229,N,0.425,K,D*2C
$GPGGA,032547.00,2303.00657,N,11324.42049,E,2,11,0.95,13.3,M,-5.1,M,,0000*74
$GPGSA,A,3,01,11,08,07,16,32,42,04,27,17,19,,1.34,0.95,0.95*05
$GPGSV,5,1,17,01,69,151,38,04,34,198,20,07,75,258,27,08,79,286,21*7C
$GPGSV,5,2,17,11,77,052,30,13,15,203,,16,07,101,18,17,15,254,12*70
$GPGSV,5,3,17,19,29,036,40,20,12,162,,23,04,181,14,27,06,052,18*7A
$GPGSV,5,4,17,28,21,314,,30,49,311,,32,10,122,25,42,50,128,39*78
$GPGSV,5,5,17,50,45,122,33*4A
$GPGLL,2303.00657,N,11324.42049,E,032547.00,A,D*63
$GPRMC,032548.00,A,2303.00671,N,11324.42063,E,0.406,,270814,,,D*73
$GPVTG,,T,,M,0.406,N,0.751,K,D*27
$GPGGA,032548.00,2303.00671,N,11324.42063,E,2,11,0.95,14.1,M,-5.1,M,,0000*72
$GPGSA,A,3,01,11,08,07,16,32,42,04,27,17,19,,1.34,0.95,0.95*05
$GPGSV,5,1,17,01,69,151,37,04,34,198,22,07,75,258,27,08,79,286,22*72
$GPGSV,5,2,17,11,77,052,30,13,15,203,,16,07,101,20,17,15,254,12*7B
$GPGSV,5,3,17,19,29,036,40,20,12,162,,23,04,181,15,27,06,052,17*74
$GPGSV,5,4,17,28,21,314,,30,49,311,,32,10,122,26,42,50,128,39*7B
$GPGSV,5,5,17,50,45,122,34*4D
$GPGLL,2303.00671,N,11324.42063,E,032548.00,A,D*60
$GPRMC,032549.00,A,2303.00679,N,11324.42082,E,0.504,,270814,,,D*76
$GPVTG,,T,,M,0.504,N,0.933,K,D*2E
$GPGGA,032549.00,2303.00679,N,11324.42082,E,2,11,1.05,14.7,M,-5.1,M,,0000*7A
$GPGSA,A,3,01,11,08,07,16,32,42,04,27,17,19,,1.48,1.05,1.05*0E
$GPGSV,5,1,17,01,69,151,36,04,34,198,23,07,75,258,27,08,79,286,23*73
$GPGSV,5,2,17,11,77,052,29,13,15,203,,16,07,101,21,17,15,254,17*77
$GPGSV,5,3,17,19,29,036,41,20,12,162,,23,04,181,16,27,06,052,18*79
$GPGSV,5,4,17,28,21,314,,30,49,311,,32,10,122,26,42,50,128,39*7B
$GPGSV,5,5,17,50,45,122,34*4D
$GPGLL,2303.00679,N,11324.42082,E,032549.00,A,D*66
$GPRMC,032550.00,A,2303.00685,N,11324.42092,E,0.436,,270814,,,D*7C
$GPVTG,,T,,M,0.436,N,0.807,K,D*28
$GPGGA,032550.00,2303.00685,N,11324.42092,E,2,12,1.05,15.1,M,-5.1,M,,0000*74
$GPGSA,A,3,01,11,08,07,16,32,42,28,04,27,17,19,1.48,1.05,1.05*04
$GPGSV,5,1,17,01,69,151,36,04,34,198,24,07,75,258,27,08,79,286,22*75
$GPGSV,5,2,17,11,77,052,30,13,15,203,,16,07,101,20,17,15,254,19*70
$GPGSV,5,3,17,19,29,036,41,20,12,162,,23,04,181,16,27,06,052,19*78
$GPGSV,5,4,17,28,21,314,18,30,49,311,,32,10,122,26,42,50,128,39*72
$GPGSV,5,5,17,50,45,122,34*4D
$GPGLL,2303.00685,N,11324.42092,E,032550.00,A,D*6C
